{ "city":
  {
    "name": "toulouse",
    "lat" : 43.607378,
    "lon" : 1.4399286,
    "defaultZoom": "14"
  },
  "places": [
    {
      "name": "La fabrique",
      "openHours": "7h30 - ?",
      "lat": 43.607378,
      "lon": 1.4399286,
      "address":  "6 Place du Peyrou",
      "type" : "coffee/restaurant",
      "power": {"available": true, "comment": "at least 2"}
    },
    {
      "name": "Brasserie Père Léon",
      "lat": 43.600474,
      "lon": 1.443858999999975,
      "address": "2 Place Esquirol" ,
      "type" : "brasserie",
      "power": {"available": false},
      "wifi": {"available": false}
    },
    {
      "name": "The George and Dragon",
      "lat": 43.607414,
      "lon": 1.4396000000000413,
      "address": "1 Place du Peyrou",
      "type" : "pub",
      "power": {"available": true}
    },
    {
      "name": "L'impro",
      "lat": 43.602984,
      "lon": 1.4416109999999662,
      "address": "7 Carriera Leon Gambetta" ,
      "type" : "coffee",
      "power": {"available": false},
      "wifi": {"available": false}
    },
    {
      "name": "Un bout du monde",
      "lat": 43.606091, 
      "lon": 1.441757,
      "address": "18, rue des penitents gris" ,
      "type" : "coffee",
      "power": {"available": true},
      "wifi": {"available": true}
    },
    {
      "name": "Les coudes sur la table",
      "lat": 43.607103, 
      "lon": 1.439847,
      "address": "39, rue des lois" ,
      "type" : "coffee",
      "power": {"available": true},
      "wifi": {"available": true}
    },
    {
      "name": "Le Cyrano",
      "lat": 43.6039657,
      "lon": 1.4472385,
      "openHours": "7h30 - ?"
      "address": "rue St Antoine du T." ,
      "type" : "coffee",
      "power": {"available": false},
      "wifi": {"available": false}
    }

  ]
}
