{ "places": [
    {
        "name": "La Cordée Perrache",
        "lat": 45.750516,
        "lon": 4.825557000000003,
        "address":  "13 cours de Verdun 69002 Lyon",
        "type": "coworking",
        "url": "http://www.la-cordee.net/"
    },
    {
        "name": "La Cordée Liberté",
        "lat": 45.7573428,
        "lon": 4.8427315000000135,
        "address":  "61 cours de la Liberté 69003 Lyon",
        "type": "coworking",
        "url": "http://www.la-cordee.net/"
    },
    {
        "name": "La Cordée Charpennes",
        "lat": 45.77138189999999,
        "lon": 4.863123200000018,
        "address":  "27 rue Henri Rolland 69100 Villeurbanne",
        "type": "coworking",
        "url": "http://www.la-cordee.net/"
    },
    {
        "name": "L'Antre Autre",
        "lat": 45.769194,
        "lon": 4.83159,
        "address":  "11 rue Terme 69001 Lyon",
        "type": "coffee / restaurant",
        "url": "http://www.lantreautre.fr"
    },
    {
        "name": "La Folie Douce",
        "lat": 45.7724217,
        "lon": 4.8343591,
        "address":  "7, pl. Colbert 69001 Lyon",
        "type": "coffee",
        "power": {"available": true, "comment": "for one table"},
        "wifi": {"available": true, "comment": "ask to the boss to get the code"}
    },
    {
        "name": "Le Tasse Livre",
        "lat": 45.7687415,
        "lon": 4.830928,
        "address":  "place sathonay 69001 Lyon",
        "type": "coffee",
        "power": {"available": true},
        "wifi": {"available": true}
    }

]
}
