{ "places": [
    {
        "name": "Café BUN",
        "lat": 43.607508,
        "lon": 3.87793,
        "openHours": "Monday 12h00 - 19h00, Tuesday to Wednesday 07h30 - 19h00 and Saturday, 09h30 - 19h00",
        "address":  "05 rue des Etuves",
        "type" : "coffee/restaurant",
        "url": "https://fr-fr.facebook.com/BUNcafe",
        "power": {"available": true},
        "wifi": {"available": true}
    },
    {
        "name": "Fairview Coffee",
        "lat": 43.606992,
        "lon": 3.877552,
        "openHours": "Tuesday to Saturday 09h30 - 19h00 and Sundays, 11h00 - 17h00",
        "address":  "6 Rue Loys",
        "type": "coffee/restaurant",
        "url": "https://www.facebook.com/FairviewCoffee",
        "power": {"available": true },
        "wifi": {"available": true }
    },
    {
        "name": "Cowork'in Montpellier",
        "lat": 43.609229,
        "lon": 3.869569,
        "openHours": "From Monday to Friday - 9am to 6pm",
        "address": "19 Rue de l'Ecole de Droit",
        "type": "coworking",
        "url": "http://coworkinmontpellier.org/",
        "power": {"available": true },
        "wifi": {"available": true }
    },
    {
        "name": "La Panacée",
        "lat": 43.61282,
        "lon": 3.87811,
        "openHours": "From Wednesday to Saturday - 10am to 1am and Sundays, 10am to 6pm",
        "address": "14, rue de l’école de pharmacie",
        "type": "café, musée",
        "url": "http://lapanacee.org",
        "power": {"available": true },
        "wifi": {"available": true }
    },
    {
        "name": "Corum",
        "lat": 43.614337,
        "lon": 3.881923,
        "openHours": "From Monday to Friday - 08h45 - 12h15 to 13h30 - 17h30",
        "address": "Esplanade Charles De Gaulle",
        "type": "public place",
        "url": "http://www.montpellier-events.com/Le-Corum/Presentation",
        "power": {"available": true },
        "wifi": {"available": false }
    },
    {
        "name": "Médiathèque centrale d'Agglomération Emile Zola",
        "lat": 43.6082336,
        "lon": 3.8938274,
        "openHours": "Tuesday and Friday 12h-19h, Wednesday: 10h-19h, Thursday: 10h-21h Saturday: 10h-18h30 and Sunday: 14h30-18h (october to april)",
        "address": "240, rue de l'Acropole",
        "type": "public place",
        "url": "http://mediatheque.montpellier-agglo.com/exploitation/DEFAULT/mediatheque-emile-zola.aspx",
        "power": {"available": true },
        "wifi": {"available": false }
    },
    {
        "name": "Les demoiselles de Montpellier",
        "lat": 43.611717920894,
        "lon": 3.8781226612183,
        "openHours": "From Monday to Saturday - 11:30am to 7:00pm - Sunday 11:00am to 3:30pm",
        "address": "2, rue de la Carbonnerie - 34000 Montpellier",
        "type": "Tea room - gluten free",
        "url": "https://www.facebook.com/lesdemoisellesdemontpellier",
        "power": {"available": true },
        "wifi": {"available": true }
    },
    {
        "name": "Columbus Café & Co Montpellier",
        "lat": 43.610368,
        "lon": 3.877198,
        "openHours": "From Monday to Saturday - 7:30am to 7:30pm",
        "address": "28, rue Foch - 34000 Montpellier",
        "type": "Coffee room",
        "url": "http://www.columbuscafe.com/columbus-cafe-montpellier.htm",
        "power": {"available": true },
        "wifi": {"available": true }
    },
    {
        "name": "Centre chorégraphique national Agora",
        "lat": 43.614141,
        "lon": 3.878109,
        "openHours": "From Monday to Friday - 9:30am to 12:30am - 2:00pm to 6:00pm",
        "address": "18 Rue Sainte-Ursule - 34961 Montpellier",
        "type": "Public place",
        "url": "http://www.montpellierdanse.com",
        "power": {"available": true },
        "wifi": {"available": true }
    },
    {
        "name": "Les Petits Débrouillards",
        "lat": 43.5996813,
        "lon": 3.8747227,
        "openHours": "From Monday to Sunday - 9:30am to 5:30pm",
        "address": "49, boulevard Berthelot - 34000 Montpellier",
        "type": "Public place",
        "url": "http://www.lespetitsdebrouillards.org",
        "power": {"available": true },
        "wifi": {"available": true }
    },
    {
        "name": "L'Épi Gaulois",
        "lat": 43.607711,
        "lon": 3.898918,
        "openHours": "From Monday to Sunday - 6:00am to 8:00pm",
        "address": "200, avenue de la Pompignane - 34000 Montpellier",
        "type": "Boulangerie",
        "power": {"available": false },
        "wifi": {"available": true }
    },
    {
        "name": "La Ronde des Pains",
        "lat": 43.6009962,
        "lon": 3.8988458,
        "openHours": "From Monday to Sunday - 6:30am to 8:00pm",
        "address": "185, avenue Marie de Montpellier - 34000 Montpellier",
        "type": "Boulangerie",
        "power": {"available": false },
        "wifi": {"available": false }
    },
    {
        "name": "L'Assiette aux Pains",
        "lat": 43.6227084,
        "lon": 3.8682955,
        "openHours": "From Monday to Sunday - 6:30am to 8:00pm",
        "address": "18, avenue du professeur Grasset - 34000 Montpellier",
        "type": "Boulangerie",
        "power": {"available": true },
        "wifi": {"available": true }
     },
     {
        "name": "Hopital Gui de Chauliac",
        "lat": 43.6297968,
        "lon": 3.8628262,
        "openHours": "From Monday to Friday - 7:00am to 7:00pm - Saturday and Sundays - 9:00am to 6:00pm",
        "address": "80, avenue Augustin Fliche - 34000 Montpellier",
        "type": "Snack",
         "url": "http://www.chu-montpellier.fr/fr/a-propos-du-chru/decouvrir-le-chru/etablissements/gui-de-chauliac/",
        "power": {"available": true },
        "wifi": {"available": false }
     },
     {
        "name": "Boulangerie patisserie Gouley",
        "lat": 43.61795,
        "lon": 3.81037,
        "openHours": "From Monday to Sunday - 7:00am to 8:00pm",
        "address": "Place du soleil - Quartier des constellations - 34990 Juvignac",
        "type": "Boulangerie",
        "power": {"available": true },
        "wifi": {"available": false }
     }
]
}
