{ "places": [
    {
      "name": "La fabrique",
      "openHours": "7h30 - ?",
      "lat": 43.607378,
      "lon": 1.4399286,
      "address":  "6 Place du Peyrou",
      "type" : "coffee/restaurant",
      "power": {"available": true, "comment": "at least 2"}
    },
    {
      "name": "Brasserie Père Léon",
      "lat": 43.600474,
      "lon": 1.443858999999975,
      "address": "2 Place Esquirol",
      "type" : "brasserie",
      "power": {"available": false},
      "wifi": {"available": false}
    },
    {
      "name": "The George and Dragon",
      "lat": 43.607414,
      "lon": 1.4396000000000413,
      "address": "1 Place du Peyrou",
      "type" : "pub",
      "power": {"available": true}
    },
    {
      "name": "L'impro",
      "lat": 43.602984,
      "lon": 1.4416109999999662,
      "address": "7 Carriera Leon Gambetta",
      "type" : "coffee",
      "power": {"available": false},
      "wifi": {"available": false}
    },
    {
      "name": "Un bout du monde",
      "lat": 43.606091,
      "lon": 1.441757,
      "openHours": "Tuesday to Wednesday, 12h00 - 20h00 and Thursday to Saturday, 12h00 - 23h00",
      "address": "18, rue des penitents gris",
      "type" : "coffee",
      "power": {"available": true},
      "wifi": {"available": true},
      "url": "http://www.unboutdumonde.fr/"
    },
    {
      "name": "Les coudes sur la table",
      "lat": 43.607103,
      "lon": 1.439847,
      "openHours": "Monday to Saturday, 11h30 - 19h00",
      "address": "39, rue des lois",
      "type" : "coffee",
      "power": {"available": true},
      "wifi": {"available": true},
      "url": "http://www.lescoudes-surlatable.fr/"
    },
    {
      "name": "Le Cyrano",
      "lat": 43.6039657,
      "lon": 1.4472385,
      "openHours": "7h30 - ?",
      "address": "rue St Antoine du T.",
      "type" : "coffee",
      "power": {"available": false},
      "wifi": {"available": false}
    },
    {
      "name": "Ombres blanches",
      "lat": 43.603361,
      "lon": 1.442201,
      "openHours": "Monday to Friday, 09h30 - 19h00 and Saturday, 10h - 19h30",
      "address": "48 and 50, rue Gambetta",
      "type" : "coffee and bookshop ",
      "power": {"available": false},
      "wifi": {"available": true},
      "url": "http://www.ombres-blanches.fr/"
    },
    {
      "name": "L'herbe tendre",
      "lat": 43.599589,
      "lon": 1.442543,
      "openHours": "?",
      "address": "45 Rue des Paradoux",
      "type" : "coffee and teamroom",
      "power": {"available": false},
      "wifi": {"available": false}
    },
    {
      "name": "Tau",
      "lat": 43.601919,
      "lon": 1.438586,
      "address": "18 Place de la Daurade",
      "type" : "coworking",
      "power": {"available": true},
      "wifi": {"available": true},
      "url": "http://www.tau.so/"
    },
    {
      "name": "Solaneko",
      "lat": 43.598608,
      "lon": 1.433171,
      "openHours": "Thuesday to Saturday, 11h00 - 19h00",
      "address": "9, rue Réclusane (place de l’Estrapade)",
      "type" : "coffee/restaurant",
      "power": {"available": true, "comment": "at least 2"},
      "wifi": {"available": false},
      "url": "http://www.solaneko.fr/"
    },
    {
      "name": "The Frog & Rosbif",
      "lat": 43.604832,
      "lon": 1.451072,
      "openHours": "17h30 - 2h (semaine) - 13h30 - 3h (samedi) - 13h30 - 2h (dimanche)",
      "address": "14 Rue de l'Industrie",
      "type" : "pub",
      "power": {"available": false},
      "wifi": {"available": true},
      "url": "http://www.frogpubs.com/pub-rosbif-toulouse.php"
    },
    {
      "name": "Mediathèque José Cabanis",
      "lat": 43.610632,
      "lon": 1.455578,
      "address": "1 Allée Jacques Chaban-Delmas",
      "type" : "library",
      "power": {"available": true},
      "wifi": {"available": false},
      "url":  "http://bibliotheque.toulouse.fr"
    },
    {
      "name": "Cirque Des Arts",
      "lat": 43.598077,
      "lon": 1.449283,
      "openHours": "12h00 - 18h00 (mardi - samedi)",
      "address": "5 Rue Nineau",
      "type" : "Espace artistique",
      "power": {"available": true},
      "wifi": {"available": true},
      "url":  "http://cirquedesarts.com"
    }
  ]
}
